start_station_name,Number of rides,latitude,longitude
"Waterloo Station 3, Waterloo",324,51.50379168,-0.11282408
"Belgrove Street , King's Cross",304,51.52994371,-0.123616824
"Waterloo Station 1, Waterloo",206,51.50402794,-0.11386436
"Wormwood Street, Liverpool Street",191,51.51615461,-0.082422399
"Finsbury Circus, Liverpool Street",175,51.51707521,-0.086685542
"Hop Exchange, The Borough",146,51.50462759,-0.091773776
"Crosswall, Tower",124,51.51159481,-0.077121322
"Moorfields, Moorgate",123,51.51906932,-0.088285377
"Brushfield Street, Liverpool Street",120,51.518908,-0.079249
"Malet Street, Bloomsbury",108,51.52168078,-0.130431727
"Finsbury Square , Moorgate",107,51.52096262,-0.085634242
"Newgate Street , St. Paul's",103,51.5154186,-0.098850915
"Craven Street, Strand",102,51.50810309,-0.12602103
"Christopher Street, Liverpool Street",101,51.52128377,-0.084605692
"Holborn Circus, Holborn",101,51.51795029,-0.108657431
"Waterloo Station 2, Waterloo",100,51.50391973,-0.11342629
"Hyde Park Corner, Hyde Park",98,51.50311799,-0.153520935
"Cheapside, Bank",95,51.51397065,-0.09294031
"Old Street Station, St. Luke's",92,51.52548,-0.089659871
"Aldersgate Street, Barbican",92,51.5208417,-0.097340162
"Berry Street, Clerkenwell",91,51.52285301,-0.099994052
"Hatton Wall, Holborn",89,51.5216612,-0.109006325
"Bankside Mix, Bankside",89,51.50581776,-0.100186337
"Royal London Hospital, Whitechapel",89,51.518675,-0.06111
"Kennington Lane Rail Bridge, Vauxhall",88,51.4863434,-0.122492418
"Ashley Place, Victoria",86,51.49616092,-0.140947636
"Bethnal Green Road, Shoreditch",86,51.52364804,-0.074754872
"Duke Street Hill, London Bridge",86,51.50630441,-0.087262995
"Leman Street, Aldgate",85,51.51236389,-0.06954201
"Drury Lane, Covent Garden",84,51.51477076,-0.12221963
"Red Lion Street, Holborn",84,51.51824,-0.11655
"Eagle Wharf Road, Hoxton",83,51.53356,-0.09315
"Endsleigh Gardens, Euston",83,51.52683806,-0.130504336
"Stamford Street, South Bank",82,51.50556905,-0.111606696
"West Smithfield Rotunda, Farringdon",81,51.51821864,-0.100791005
"Bunhill Row, Moorgate",80,51.52085887,-0.089887855
"Abbey Orchard Street, Westminster",80,51.49812559,-0.132102166
"Wardour Street, Soho",80,51.51251523,-0.133201961
"Shoreditch High Street, Shoreditch",79,51.5263778,-0.078130921
"Bath Street, St. Luke's",78,51.52589324,-0.090847761
"Exhibition Road, Knightsbridge",78,51.499917,-0.174554
"William IV Street, Strand",77,51.50946212,-0.124749274
"Little Argyll Street, West End",77,51.51449962,-0.141423695
"Eccleston Place, Victoria",77,51.49395092,-0.147624377
"Russell Square Station, Bloomsbury",76,51.52341837,-0.124121774
"Great Tower Street, Monument",76,51.51048489,-0.082989638
"Bank of England Museum, Bank",75,51.51444134,-0.087587447
"Museum of London, Barbican",75,51.51782144,-0.096496865
"Black Lion Gate, Kensington Gardens",75,51.50990837,-0.187842717
"Foley Street, Fitzrovia",74,51.51918144,-0.140485596
"Leonard Circus , Shoreditch",74,51.52469624,-0.084439283
"Guilford Street , Bloomsbury",74,51.52334672,-0.120202614
"Clerkenwell Green, Clerkenwell",72,51.52326004,-0.104708922
"Albert Gate, Hyde Park",71,51.50295379,-0.158456089
"Bermondsey Street, Bermondsey",71,51.49785559,-0.081608045
"Tooley Street, Bermondsey",71,51.5034938,-0.07962099
"Hatton Garden, Holborn",70,51.51882555,-0.108028472
"Gloucester Road Station, South Kensington",70,51.49418566,-0.18267094
"Stonecutter Street, Holborn",70,51.51580998,-0.105270275
"Sadlers Sports Centre, Finsbury",70,51.52486887,-0.099489485
"St. James's Square, St. James's",70,51.50742485,-0.134621209
"Tavistock Street, Covent Garden",70,51.51196803,-0.120718759
"Wellington Street , Strand",69,51.51175646,-0.119643424
"Godliman Street, St. Paul's",69,51.51248445,-0.099141408
"Baylis Road, Waterloo",69,51.50144456,-0.110699309
"Soho Square , Soho",68,51.51563144,-0.132328837
"Doric Way , Somers Town",68,51.5288338,-0.132250369
"Braham Street, Aldgate",68,51.51423368,-0.073537654
"Notting Hill Gate Station, Notting Hill",67,51.50935342,-0.196422
"Golden Lane, Barbican",67,51.52174785,-0.094475072
"South Kensington Station, South Kensington",67,51.494412,-0.173881
"Belgrave Road, Victoria",66,51.49320445,-0.144132875
"Wren Street, Holborn",66,51.524564,-0.116279
"Howick Place, Westminster",65,51.49675303,-0.138733562
"Snow Hill, Farringdon",65,51.51733427,-0.103604248
"Howland Street, Fitzrovia",65,51.520994,-0.139016
"Finsbury Leisure Centre, St. Luke's",64,51.52600832,-0.096317627
"New Fetter Lane, Holborn",64,51.517428,-0.107987
"Kennington Cross, Kennington",64,51.48894022,-0.111435796
"Warren Street Station, Euston",64,51.52443845,-0.138019439
"Nesham Street, Wapping",63,51.507131,-0.06691
"Natural History Museum, South Kensington",63,51.49559291,-0.179077626
"Bayswater Road, Hyde Park",63,51.511933,-0.174411
"St. Bride Street, Holborn",62,51.51505991,-0.10534448
"Queen Street 2, Bank",62,51.511246,-0.093051
"Bouverie Street, Temple",62,51.51382102,-0.107927706
"Graham Street, Angel",62,51.53266186,-0.099981142
"Broadcasting House, Marylebone",61,51.51811784,-0.144228881
"Derry Street, Kensington",61,51.50136494,-0.191462381
"Vauxhall Cross, Vauxhall",61,51.48591714,-0.124469948
"Wells Street, Fitzrovia",61,51.51734403,-0.138072691
"Regent's Row , Haggerston",59,51.535678,-0.062546
"Imperial College, Knightsbridge",59,51.49942855,-0.179702476
"Curlew Street, Shad Thames",59,51.50227992,-0.074189225
"Queen Victoria Street, St. Paul's",59,51.51196176,-0.097441687
"Bolsover Street, Fitzrovia",59,51.52351808,-0.143613641
"Moor Street, Soho",58,51.51352755,-0.130110822
"Jubilee Gardens, South Bank",58,51.5046364,-0.116542278
"British Museum, Bloomsbury",58,51.51908011,-0.124678402
"South Wharf Road, Paddington",58,51.51733558,-0.175810943
"Bayley Street , Bloomsbury",58,51.51858757,-0.132053392
"Fore Street, Guildhall",58,51.517842,-0.090075
"Strand, Strand",58,51.512582,-0.1150573
"Sardinia Street, Holborn",58,51.515208,-0.117863
"Tower Gardens , Tower",56,51.50950627,-0.075459482
"Southampton Place, Holborn",56,51.51760685,-0.121328408
"Taviton Street, Bloomsbury",55,51.52505093,-0.131161087
"Southwark Station 2, Southwark",55,51.504044,-0.104778
"Palace Gate, Kensington Gardens",55,51.50204238,-0.184400221
"Smith Square, Westminster",54,51.49580589,-0.127575233
"Tysoe Street, Clerkenwell",54,51.52644342,-0.109256828
"Whitehall Place, Strand",54,51.50654321,-0.123179697
"Drummond Street , Euston",54,51.527326,-0.13605286
"Islington Green, Angel",54,51.53638435,-0.102757578
"Chadwell Street, Angel",54,51.53051587,-0.106408455
"Pritchard's Road, Bethnal Green",53,51.532091,-0.06142
"Shoreditch Park, Hoxton",53,51.53404294,-0.086379717
"Wellington Arch, Hyde Park",52,51.50274025,-0.149569201
"Great Titchfield Street, Fitzrovia",52,51.52025302,-0.141327271
"Kensington Church Street, Kensington",52,51.50315739,-0.191496313
"Tavistock Place, Bloomsbury",51,51.5262503,-0.123509611
"Hampstead Road, Euston",51,51.52554222,-0.138231303
"Boston Place, Marylebone",51,51.522511,-0.162298
"Golden Square, Soho",50,51.5118973,-0.137043852
"Hinde Street, Marylebone",50,51.51681444,-0.151926305
"Triangle Car Park, Hyde Park",49,51.50645179,-0.170279555
"Queen Mother Sports Centre, Victoria",49,51.49357351,-0.139956043
"Broadwick Street, Soho",49,51.5136846,-0.135580879
"Webber Street , Southwark",49,51.50069361,-0.102091246
"Kingsway Southbound, Strand",49,51.513875,-0.117774
"New Cavendish Street, Marylebone",48,51.519167,-0.147983
"Liverpool Road (N1 Centre), Angel",48,51.53450449,-0.106992706
"Northington Street , Holborn",48,51.5222641,-0.114079481
"Holy Trinity Brompton, Knightsbridge",48,51.49705603,-0.168917077
"Gloucester Street, Pimlico",47,51.49096258,-0.139625122
"Dorset Square, Marylebone",47,51.5225965,-0.161113413
"Bricklayers Arms, Borough",47,51.49506109,-0.085814489
"Brunswick Square, Bloomsbury",47,51.52395143,-0.122502346
"Empire Square, The Borough",46,51.50082346,-0.089740764
"Milroy Walk, South Bank",46,51.50724437,-0.106237501
"Great Russell Street, Bloomsbury",46,51.51772703,-0.127854211
"Granby Street, Shoreditch",45,51.525645,-0.069543
"Queen's Gate, Kensington Gardens",45,51.5017154373867,-0.1798541843891
"Wood Street, Guildhall",45,51.51700801,-0.09388536
"Flood Street, Chelsea",45,51.48802358,-0.166878535
"Erin Close, Walham Green",45,51.47946386,-0.195777222
"Westbridge Road, Battersea",45,51.47768469,-0.170329317
"Portland Place, Marylebone",45,51.52071513,-0.14521173
"Elizabeth Bridge, Victoria",45,51.49236962,-0.147478734
"Southwick Street, Paddington",45,51.51595344,-0.169249375
"St. George's Square, Pimlico",45,51.488226,-0.135635511
"St. Mary Axe, Aldgate",44,51.51422502,-0.080660083
"Montpelier Street, Knightsbridge",44,51.49888404,-0.165471605
"Fire Brigade Pier, Vauxhall",44,51.49369988,-0.121394101
"Old Quebec Street, Marylebone",44,51.51457763,-0.158264483
"Finsbury Library , Finsbury",44,51.52671796,-0.104298194
"Horseferry Road, Westminster",43,51.49481649,-0.13045856
"Fournier Street, Whitechapel",43,51.519362,-0.074431
"New Inn Yard, Shoreditch",43,51.52452699,-0.079248081
"Charlotte Street, Fitzrovia",43,51.51953043,-0.13577731
"Red Lion Square, Holborn",43,51.51943538,-0.119123345
"Roscoe Street, St. Luke's",43,51.52295439,-0.094934859
"Bell Lane, Liverpool Street",43,51.517475,-0.075855
"St. Chad's Street, King's Cross",43,51.53005939,-0.120973687
"Ontario Street, Elephant & Castle",43,51.49652013,-0.101384068
"Norton Folgate, Liverpool Street",42,51.52111369,-0.078869751
"Hammersmith Road, Hammersmith",42,51.493267,-0.21985
"Pall Mall East, West End",42,51.50777049,-0.130699733
"Page Street, Westminster",42,51.493978,-0.127554
"Dunston Road , Haggerston",42,51.53658514,-0.075885686
"Chapel Place, Marylebone",42,51.51530805,-0.147203711
"Frith Street, Soho",42,51.51310333,-0.13121385
"Hortensia Road, West Brompton",42,51.48176572,-0.185273723
"Southampton Street, Strand",42,51.51070161,-0.121723604
"Waterloo Place, St. James's",42,51.50663341,-0.131773845
"Ilchester Gardens, Bayswater",42,51.51244,-0.19096
"Scala Street, Fitzrovia",41,51.51991453,-0.136039674
"Bell Street , Marylebone",41,51.52202903,-0.165842551
"Wenlock Road , Hoxton",41,51.53099181,-0.093903825
"Windsor Terrace, Hoxton",41,51.52915444,-0.093421615
"Rathbone Street, Fitzrovia",41,51.51816295,-0.135025698
"Poured Lines, Bankside",41,51.50669284,-0.103137426
"Marylebone Lane, Marylebone",41,51.51475963,-0.148105415
"Earnshaw Street , Covent Garden",41,51.51611887,-0.128585022
"New Globe Walk, Bankside",40,51.5073853,-0.096440751
"George Street, Marylebone",40,51.517703,-0.154106
"Northdown Street, King's Cross",40,51.531066,-0.11934
"Royal College Street, Camden Town",40,51.536264,-0.133952
"Eaton Square, Belgravia",40,51.49654462,-0.150905245
"Tallis Street, Temple",40,51.511891,-0.107349
"Tanner Street, Bermondsey",40,51.50064702,-0.078600401
"The Vale, Chelsea",40,51.48512191,-0.174971902
"Wright's Lane, Kensington",40,51.50039792,-0.193068385
"Great Suffolk Street, The Borough",40,51.50173215,-0.100292412
"Swan Street, The Borough",39,51.50029631,-0.092762704
"Falcon Road, Clapham Junction",39,51.46663393,-0.169821175
"Gloucester Road (North), Kensington",39,51.49792478,-0.183834706
"Shadwell Station, Shadwell",39,51.511088,-0.057159
"Watney Street, Shadwell",39,51.511542,-0.056667
"Ethelburga Estate, Battersea Park",39,51.47729232,-0.16478637
"Butler Place, Westminster",39,51.49782999,-0.135440826
"Jewry Street, Aldgate",39,51.51340693,-0.076793375
"Pott Street, Bethnal Green",39,51.527152,-0.058005
"Rampayne Street, Pimlico",39,51.48997562,-0.132845681
"Queen's Circus, Battersea Park",39,51.47761941,-0.149551631
"Lancaster Gate , Bayswater",39,51.511654,-0.179668
"Crinan Street, King's Cross",38,51.534474,-0.122203
"Fulham Broadway, Walham Green",38,51.47993289,-0.19411695
"Devonshire Terrace, Bayswater",38,51.51348,-0.17977
"Wellington Row, Bethnal Green",38,51.528222,-0.069743
"Imperial Road, Sands End",38,51.47514228,-0.187278987
"Ampton Street , Clerkenwell",38,51.52728093,-0.11829517
"Torrens Street, Angel",38,51.53219984,-0.105480698
"Monument Street, Monument",37,51.50964,-0.08497
"Penywern Road, Earl's Court",37,51.49159394,-0.192369256
"Prince Consort Road, Knightsbridge",37,51.49980661,-0.176415994
"Hertford Road, De Beauvoir Town",37,51.53727795,-0.079201849
"Hereford Road, Bayswater",37,51.513735,-0.193487
"York Hall, Bethnal Green",37,51.528936,-0.055894
"Clifton Road, Maida Vale",37,51.52557531,-0.179592915
"Eastbourne Mews, Paddington",37,51.51641749,-0.179135079
"Baker Street, Marylebone",36,51.51891348,-0.156166631
"Bury Place, Holborn",36,51.51746,-0.12335
"St. John Street, Finsbury",36,51.52836014,-0.104724625
"Sedding Street, Sloane Square",36,51.49313,-0.156876
"Flamborough Street, Limehouse",36,51.5128711,-0.0389866
"Bonny Street, Camden Town",36,51.541603,-0.138853
"Jubilee Street, Stepney",36,51.515975,-0.053177
"Beaumont Street, Marylebone",35,51.52200801,-0.151359288
"Crawford Street, Marylebone",35,51.52026,-0.157183945
"Parsons Green Station, Parsons Green",35,51.475089,-0.201968
"Greenland Road, Camden Town",35,51.539099,-0.141728
"King Edward Street, St Pauls",35,51.51601,-0.0985
"East Road, Hoxton",35,51.52867339,-0.087459376
"Carey Street, Holborn",35,51.51501025,-0.112753217
"Seymour Place, Marylebone",35,51.520331,-0.163667
"All Saints Church, Portobello",35,51.51632095,-0.202608612
"Newton Street, Covent Garden",35,51.51612862,-0.120909408
"Union Street, The Borough",35,51.50368837,-0.098497684
"Cloudesley Road, Angel",35,51.53440868,-0.109025404
"Great Percy Street, Clerkenwell",35,51.52891573,-0.115480888
"St. John's Wood Road, St. John's Wood",34,51.5272947,-0.174653609
"Victoria Park Road, Hackney Central",34,51.53642464,-0.054162264
"Clifton Street, Shoreditch",34,51.523196,-0.083067
"New Road 1 , Whitechapel",34,51.518154,-0.062697
"Old Brompton Road, South Kensington",34,51.49094565,-0.181190899
"Baldwin Street, St. Luke's",34,51.52702563,-0.088542771
"Pancras Road, King's Cross",34,51.5341235,-0.129386874
"Cheshire Street, Bethnal Green",34,51.52388,-0.065076
"Parson's Green , Parson's Green",33,51.472817,-0.199783
"Lexham Gardens, Kensington",33,51.49586666,-0.191933711
"Buckingham Gate, Westminster",33,51.49886563,-0.137424571
"Chelsea Bridge, Pimlico",33,51.485821,-0.149004
"Waterloo Bridge, South Bank",33,51.50535447,-0.113656543
"Euston Road, Euston",33,51.5262363,-0.134407652
"Tachbrook Street, Victoria",33,51.49211134,-0.138364847
"High Holborn , Covent Garden",32,51.516226,-0.124826
"Christian Street, Whitechapel",32,51.513074,-0.064094
"Sackville Street, Mayfair",32,51.51004801,-0.138846453
"LMU Commercial Road, Whitechapel",32,51.51492456,-0.066078037
"Kennington Oval, Oval",32,51.483145,-0.113134
"Hardwick Street, Clerkenwell",32,51.52784273,-0.108068155
"Castlehaven Road, Camden Town",32,51.542138,-0.145393
"Macclesfield Rd, St Lukes",32,51.529423,-0.097122
"Battersea Church Road, Battersea",32,51.47696496,-0.174347066
"Turquoise Island, Notting Hill",32,51.51431171,-0.200838199
"Farringdon Lane, Clerkenwell",32,51.52352001,-0.108340165
"Goswell Road (City Uni), Finsbury",32,51.528246,-0.10102611
"Bedford Way, Bloomsbury",32,51.52367314,-0.128377673
"Greycoat Street , Westminster",32,51.49459148,-0.134234258
"St. George Street, Mayfair",32,51.51196,-0.142783033
"Fanshaw Street, Hoxton",32,51.52953709,-0.083353323
"Ada Street, Hackney Central",31,51.53571683,-0.060291813
"Warwick Avenue Station, Maida Vale",31,51.52334476,-0.183846408
"Westferry DLR, Limehouse",31,51.509303,-0.025996
"Houghton Street, Strand",31,51.51362054,-0.116764211
"Serpentine Car Park, Hyde Park",31,51.505014,-0.17306032
"Black Prince Road, Vauxhall",31,51.4908679,-0.116911864
"Gloucester Avenue, Camden Town",31,51.537349,-0.147154
"Westbourne Grove, Bayswater",31,51.51552971,-0.190240716
"Sloane Avenue, Knightsbridge",31,51.4931848,-0.167894973
"Bramham Gardens, Earl's Court",30,51.49016361,-0.19039362
"Fashion Street, Whitechapel",30,51.51838043,-0.073438925
"Tyers Gate, Bermondsey",30,51.50088934,-0.083159352
"Claremont Square, Angel",30,51.53166681,-0.109914711
"Chancery Lane, Holborn",30,51.514274,-0.111257
"Binfield Road, Stockwell",30,51.47250956,-0.122831913
"Portman Square, Marylebone",30,51.516204,-0.155525
"Vincent Street, Pimlico",30,51.493072,-0.129925
"Phillimore Gardens, Kensington",30,51.49960695,-0.197574246
"Kennington Road  , Vauxhall",30,51.49571828,-0.110889274
"Rochester Row, Westminster",30,51.49582705,-0.13547809
"Rodney Road , Walworth",30,51.49148474,-0.090220911
"Barons Court Station, West Kensington",29,51.49021762,-0.215087092
"Long Lane , Bermondsey",29,51.49907558,-0.085666316
"Commercial Street, Shoreditch",29,51.52127071,-0.0755789
"Snowsfields, London Bridge",29,51.50215353,-0.083632928
"Harrowby Street, Marylebone",29,51.5173721,-0.1642075
"Blenheim Crescent, Ladbroke Grove",29,51.51510818,-0.208565479
"Nutford Place, Marylebone",29,51.5165179,-0.164393768
"Archbishop's Park, Waterloo",29,51.49824168,-0.117495865
"Barbican Centre, Barbican",29,51.52004497,-0.092176447
"Bancroft Road, Bethnal Green",29,51.526041,-0.047218
"North Wharf Road, Paddington",29,51.51862243,-0.176645823
"Queen's Gate (Central), South Kensington",29,51.49396755,-0.17873226
"Upcerne Road, West Chelsea",29,51.47816972,-0.18243547
"Palace Gardens Terrace, Notting Hill",29,51.50860544,-0.193764092
"Lower Marsh, Waterloo",29,51.50013942,-0.113936001
"Albert Embankment, Vauxhall",28,51.49043573,-0.122806861
"Furze Green, Bow",28,51.519265,-0.021345
"Alderney Street, Pimlico",28,51.48805753,-0.140741432
"Park Street, Bankside",28,51.50597426,-0.092754157
"Percival Street, Finsbury",28,51.526153,-0.102208
"West Cromwell Road, Earl's Court",28,51.49372451,-0.198286569
"Grosvenor Square, Mayfair",28,51.51217033,-0.150481272
"Carnegie Street, King's Cross",28,51.53546778,-0.11619105
"Falkirk Street, Hoxton",28,51.53095071,-0.078505384
"Woodstock Grove, Shepherd's Bush",28,51.50403821,-0.217400093
"Haggerston Road, Haggerston",28,51.53932857,-0.074284675
"Brook Green South, Brook Green",28,51.49434708,-0.215804559
"Twig Folly Bridge, Mile End",27,51.530326,-0.042744
"Southwark Station 1, Southwark",27,51.504043,-0.105312
"Harriet Street, Knightsbridge",27,51.50024195,-0.15934065
"Ebury Bridge, Pimlico",27,51.490491,-0.149186
"Lambeth North Station, Waterloo",27,51.49914063,-0.112031483
"Warwick Square, Pimlico",27,51.48985626,-0.141923621
"Greyhound Road, Hammersmith",27,51.48606206,-0.214428378
"Knightsbridge, Hyde Park",27,51.50275704,-0.155349725
"Millennium Hotel, Mayfair",27,51.5109192966489,-0.1511263847351
"St. Peter's Terrace, Fulham",27,51.47893931,-0.208485293
"The Guildhall, Guildhall",27,51.51573534,-0.093080779
"Reardon Street, Wapping",27,51.506946,-0.058681
"Queen's Gate (North), Kensington",27,51.50102668,-0.180246101
"George Place Mews, Marylebone",27,51.51689296,-0.158249929
"Michael Road, Walham Green",27,51.47727637,-0.189210466
"Coomer Place, West Kensington",27,51.48357068,-0.202038682
"Manresa Road, Chelsea",26,51.486892,-0.170983
"Margery Street, Clerkenwell",26,51.52659961,-0.112432615
"Grant Road East, Clapham Junction",26,51.46489445,-0.17302926
"Old Ford Road, Bethnal Green",26,51.531127,-0.048017
"Silverthorne Road, Battersea",26,51.47286577,-0.148059277
"Seville Street, Knightsbridge",26,51.50185512,-0.159237081
"Queen's Gate (South), South Kensington",26,51.49247977,-0.178433004
"World's End Place, West Chelsea",26,51.48180515,-0.18027465
"Philpot Street, Whitechapel",26,51.515256,-0.058641
"Putney Bridge Station, Fulham",26,51.468814,-0.210279
"Prince of Wales Drive, Battersea Park",25,51.47515398,-0.159169801
"Pont Street, Knightsbridge",25,51.4968865,-0.161203828
"Charles II Street, West End",25,51.50844614,-0.131961389
"Northumberland Avenue, Strand",25,51.506767,-0.123702
"Walnut Tree Walk, Vauxhall",25,51.49368637,-0.111014912
"Parkway, Camden Town",25,51.538071,-0.144664
"Panton Street, West End",25,51.50963938,-0.131510949
"Old Montague Street, Whitechapel",25,51.51793,-0.067937
"Borough Road, Elephant & Castle",25,51.49889832,-0.100440521
"Grove End Road, St. John's Wood",25,51.53088935,-0.176770502
"Lower Thames Street, Monument",25,51.50930161,-0.084985356
"Guildhouse Street, Victoria",25,51.49234577,-0.141334487
"Westminster University, Marylebone",25,51.52248185,-0.154907218
"Eversholt Street , Camden Town",25,51.53300545,-0.136792671
"Kensington Gore, Knightsbridge",25,51.50143293,-0.178656971
"Gloucester Road (Central), South Kensington",25,51.49646288,-0.183289032
"William Morris Way, Sands End",25,51.46881971,-0.184318843
"South Park, Sands End",24,51.46706414,-0.193502076
"Bow Road Station, Bow",24,51.527058,-0.025296
"Murray Grove , Hoxton",24,51.53089041,-0.089782579
"Arlington Road, Camden Town",24,51.539957,-0.145246
"St. Luke's Church, Chelsea",24,51.48971651,-0.170194408
"Stepney Green Station, Stepney",24,51.521889,-0.04667
"Stephendale Road, Sands End",24,51.46822047,-0.190346493
"Wapping Lane, Wapping",24,51.504749,-0.057544
"Shouldham Street, Marylebone",24,51.51809,-0.163609
"Vicarage Gate, Kensington",24,51.50472376,-0.192538767
"Royal Avenue 2, Chelsea",24,51.490083,-0.162418
"Vicarage Crescent, Battersea",24,51.47287627,-0.176267008
"Charlbert Street, St. John's Wood",24,51.53430039,-0.1680743
"Kennington Station, Kennington",24,51.488852,-0.105593
"Hoxton Street, Hoxton",24,51.52959,-0.0801
"Colombo Street, Southwark",24,51.50545935,-0.10569204
"Regency Street, Westminster",24,51.49206037,-0.132224622
"Jubilee Plaza, Canary Wharf",23,51.50357,-0.020068
"Hartington Road, Stockwell",23,51.47787084,-0.126874471
"Lambeth Road, Vauxhall",23,51.49488108,-0.117974901
"Park Lane, Mayfair",23,51.50542628,-0.150817316
"Hampton Street, Walworth",23,51.49217002,-0.101536865
"Durant Street, Bethnal Green",23,51.52868155,-0.065550321
"Orbel Street, Battersea",23,51.47453545,-0.170210533
"LSBU (Borough Road), Elephant & Castle",23,51.49874469,-0.103132904
"Lansdowne Road, Ladbroke Grove",23,51.50748124,-0.205535908
"Concert Hall Approach 1, South Bank",23,51.505044,-0.115851
"Surrey Lane, Battersea",23,51.47518024,-0.167160736
"Green Street, Mayfair",23,51.51227622,-0.157436972
"Abingdon Villas, Kensington",23,51.4973875,-0.197245586
"Pitfield Street Central, Hoxton",22,51.53213,-0.08299
"Borough High Street, The Borough",22,51.50069491,-0.094524319
"Clinton Road, Mile End",22,51.525941,-0.036017
"Bourne Street, Belgravia",22,51.490959,-0.1532331
"Albert Gardens, Stepney",22,51.51328,-0.047784
"Doddington Grove, Kennington",22,51.48692917,-0.102996299
"Grafton Street, Mayfair",22,51.5099923,-0.143495266
"Humbolt Road, Fulham",22,51.48321729,-0.211860644
"Belgrave Square, Belgravia",22,51.49941247,-0.152317537
"Fulham Park Road, Fulham",22,51.473471,-0.20782
"Denyer Street, Knightsbridge",22,51.49358391,-0.165101392
"North Audley Street, Mayfair",22,51.5129118,-0.153645496
"Ashley Crescent, Battersea",22,51.46718562,-0.152248582
"Danvers Street, West Chelsea",22,51.48256792,-0.172078187
"Rossmore Road, Marylebone",22,51.52526975,-0.163795009
"Albert Bridge Road, Battersea Park",22,51.47439218,-0.163347594
"Hollybush Gardens, Bethnal Green",21,51.527607,-0.057133
"Chelsea Green, Chelsea",21,51.49066456,-0.166485083
"Aston Street, Stepney",21,51.516,-0.038775
"Park Lane , Hyde Park",21,51.5100172,-0.157275636
"Sancroft Street, Vauxhall",21,51.48947903,-0.115156562
"Mile End Stadium, Mile End",21,51.51854104,-0.034903714
"West Kensington Station, West Kensington",21,51.49087074,-0.206029743
"Vereker Road, West Kensington",21,51.48959104,-0.209378594
"Curzon Street, Mayfair",21,51.50706909,-0.145904427
"Burdett Road, Mile End",21,51.516196,-0.029138
"St. Mark's Road, North Kensington",21,51.51687069,-0.213872396
"Claverton Street, Pimlico",21,51.48483991,-0.138089062
"Concert Hall Approach 2, South Bank",21,51.504942,-0.115533
"New North Road 2, Hoxton",21,51.53114,-0.086016
"St. Martin's Street, West End",21,51.50908747,-0.129697889
"Wandsworth Town Station, Wandsworth",21,51.46086446,-0.187427294
"All Saints' Road, Portobello",21,51.5190427,-0.204764421
"Alfreda Street, Battersea Park",21,51.47505096,-0.150908371
"Sutton Street, Shadwell",21,51.511066,-0.053558
"Finlay Street, Fulham",20,51.4768851,-0.215895601
"Watney Market, Stepney",20,51.5142228,-0.055656
"Grosvenor Road, Pimlico",20,51.4853572,-0.142207481
"Bishop's Bridge Road West, Bayswater",20,51.51616,-0.18697
"Bishop's Avenue, Fulham",20,51.47303687,-0.214749808
"Emperor's Gate, South Kensington",20,51.49536226,-0.185296516
"Princes Square, Bayswater",20,51.5134891,-0.191351186
"Finnis Street, Bethnal Green",20,51.52458353,-0.058631453
"Risinghill Street, Angel",20,51.5333196,-0.1117812
"Garnet Street, Shadwell",20,51.508447,-0.055167
"Farm Street, Mayfair",20,51.50935171,-0.14744969
"Eel Brook Common, Walham Green",20,51.47625965,-0.193254007
"Stanhope Gate, Mayfair",20,51.50686435,-0.150666888
"BBC White City, White City",20,51.514767,-0.225787
"Hermitage Court, Wapping",20,51.504719,-0.063531
"Collingham Gardens, Earl's Court",20,51.4916156,-0.186753859
"Clifford Street, Mayfair",20,51.51066202,-0.142345694
"Mile End Park Leisure Centre, Mile End",20,51.52059714,-0.032566533
"Osiers Road, Wandsworth",20,51.46067005,-0.198735357
"Nevern Place, Earl's Court",20,51.49334336,-0.194757949
"Knaresborough Place, Earl's Court",20,51.49363156,-0.190603326
"Pembridge Villas, Notting Hill",20,51.51108452,-0.197524944
"Royal Avenue 1, Chelsea",19,51.489932,-0.162727
"Beryl Road, Hammersmith",19,51.48814438,-0.222456468
"Thorndike Close, West Chelsea",19,51.48089844,-0.183853573
"Sheepcote Lane, Battersea",19,51.47053858,-0.163041605
"Grosvenor Crescent, Belgravia",19,51.50135267,-0.153194766
"Westbourne Park Road, Portobello",19,51.51787005,-0.201005397
"Cleaver Street, Kennington",19,51.488105,-0.110121
"Salmon Lane, Limehouse",19,51.514115,-0.033828
"Cleveland Gardens, Bayswater",19,51.515607,-0.183118788
"King Edward Walk, Waterloo",19,51.49775,-0.10988
"Kennington Road Post Office, Oval",19,51.48478899,-0.110683213
"Paddington Street, Marylebone",19,51.52058381,-0.154701411
"Aberdeen Place, St. John's Wood",19,51.524826,-0.176268
"Lots Road, West Chelsea",19,51.4795738,-0.17903854
"Porchester Place, Paddington",19,51.51474612,-0.165164288
"Wapping High Street, Wapping",19,51.504904,-0.06797
"Cephas Street, Bethnal Green",18,51.522561,-0.054883
"Upper Bank Street, Canary Wharf",18,51.503083,-0.017676
"Princedale Road , Holland Park",18,51.50646524,-0.208486599
"Vincent Square, Westminster",18,51.49398524,-0.136928582
"South Audley Street, Mayfair",18,51.50923022,-0.151296092
"River Street , Clerkenwell",18,51.52916347,-0.109970527
"Bow Church Station, Bow",18,51.528169,-0.018703
"Belford House, Haggerston",18,51.5366541,-0.07023031
"Charing Cross Hospital, Hammersmith",18,51.48728535,-0.217995921
"Embankment (Savoy), Strand",18,51.50963123,-0.119047563
"Charlotte Terrace, Angel",18,51.53639219,-0.112721065
"Broadley Terrace, Marylebone",18,51.52456169,-0.165668686
"Queensbridge Road, Haggerston",18,51.53385,-0.06992
"Gloucester Terrace, Bayswater",18,51.51791921,-0.188098863
"Trebovir Road, Earl's Court",18,51.49085368,-0.196170309
"Ormonde Gate, Chelsea",18,51.48796408,-0.161765173
"Wellington Road, St. John's Wood",18,51.53304322,-0.172528678
"Rainville Road, Hammersmith",18,51.48373225,-0.223852256
"Aylward Street, Stepney",18,51.51563007,-0.049067243
"Union Grove, Wandsworth Road",18,51.472993,-0.133972
"Gwendwr Road, West Kensington",18,51.491026,-0.209121
"Addison Road, Holland Park",18,51.504199,-0.210941
"Eaton Square (South), Belgravia",17,51.49456127,-0.15393398
"Chesilton Road, Fulham",17,51.47569809,-0.20587627
"Whiston Road, Haggerston",17,51.534464,-0.076341
"Orsett Terrace, Bayswater",17,51.517932,-0.183716959
"Bridge Avenue, Hammersmith",17,51.49208492,-0.229116862
"Richmond Way, Shepherd's Bush",17,51.50035306,-0.217515071
"Caldwell Street, Stockwell",17,51.477839,-0.116493
"Hibbert Street, Battersea",17,51.46517078,-0.18038939
"Aintree Street, Fulham",17,51.48102131,-0.209973497
"Dorothy Road, Clapham Junction",17,51.46506424,-0.163750945
"City Road, Angel",17,51.530344,-0.100168
"Mostyn Grove, Bow",16,51.530535,-0.025492
"Marloes Road, Kensington",16,51.496481,-0.192404
"Harcourt Terrace, West Brompton",16,51.48795853,-0.187404506
"Disraeli Road, Putney",16,51.46161068,-0.21614583
"Sandilands Road, Walham Green",16,51.473611,-0.191803
"Vauxhall Bridge , Pimlico",16,51.48836528,-0.129361842
"Woodstock Street, Mayfair",16,51.51410514,-0.147301667
"Phene Street, Chelsea",16,51.48498496,-0.167919869
"Star Road, West Kensington",16,51.48724429,-0.205279052
"Warwick Road, Olympia",16,51.49671237,-0.20528437
"Chepstow Villas, Notting Hill",16,51.51213691,-0.201554966
"Ram Street, Wandsworth",16,51.45752945,-0.192165613
"Kingsway, Covent Garden",15,51.51440928,-0.118478757
"South Parade, Chelsea",15,51.48902,-0.17524
"Bruton Street, Mayfair",15,51.51073687,-0.144165239
"Blythe Road West, Shepherd's Bush",15,51.49968,-0.221791551
"Driffield Road, Old Ford",15,51.534137,-0.037366
"Everington Street, Fulham",15,51.48335692,-0.216305546
"Kensington Town Hall, Kensington",15,51.50194596,-0.194392952
"Buxton Street 1, Shoreditch",15,51.521776,-0.068856
"Rectory Square, Stepney",15,51.518369,-0.043371
"Shoreditch Court, Haggerston",15,51.53908372,-0.070329419
"Palissy Street, Shoreditch",15,51.526293,-0.073955
"Clarkson Street, Bethnal Green",14,51.528692,-0.059091
"Vauxhall Street, Vauxhall",14,51.486965,-0.116625
"Clarendon Road, Avondale",14,51.51323001,-0.211593602
"Globe Town Market, Bethnal Green",14,51.528869,-0.047548
"Lisson Grove, St. John's Wood",14,51.52644828,-0.172190727
"Cotton Garden Estate, Kennington",14,51.4907579,-0.106323685
"Felsham Road, Putney",14,51.464786,-0.215618902
"Lollard Street, Vauxhall",14,51.49288067,-0.114934001
"Westfield Southern Terrace ,Shepherd's Bush",14,51.506256,-0.218337
"Bishop's Bridge Road East, Bayswater",14,51.5171,-0.18377
"Little Brook Green, Brook Green",14,51.496664,-0.223868
"South Lambeth Road, Vauxhall",14,51.481747,-0.124642
"Kensington Olympia Station, Olympia",14,51.49815779,-0.209494128
"Saunders Ness Road, Cubitt Town",14,51.487129,-0.0090011
"Pennington Street, Wapping",14,51.508622,-0.065006
"Penfold Street, Marylebone",14,51.52289229,-0.171681991
"Cadogan Close, Victoria Park",14,51.54211855,-0.028941601
"Sumner Place, South Kensington",13,51.49121192,-0.173715911
"Thurtle Road, Haggerston",13,51.534776,-0.071881
"Stainsby Road , Poplar",13,51.51542791,-0.02356501
"Crabtree Lane, Fulham",13,51.48294452,-0.219346128
"Ashmole Estate, Oval",13,51.48267821,-0.117661574
"Paddington Green, Paddington",13,51.520205,-0.174593
"Gaywood  Street, Elephant & Castle",13,51.49605,-0.104193
"Hewison Street, Old Ford",12,51.533283,-0.028155
"Sail Street, Vauxhall",12,51.495656,-0.114605
"East Ferry Road, Cubitt Town",12,51.49447,-0.014409
"Cadogan Place, Knightsbridge",12,51.49464523,-0.158105512
"Ravenscourt Park Station, Hammersmith",12,51.49422354,-0.236769936
"Campden Hill Road, Notting Hill",12,51.50658458,-0.199004026
"Ford Road, Old Ford",12,51.532513,-0.033085
"Irene Road, Parsons Green",12,51.4737636,-0.197010096
"Jubilee Crescent, Cubitt Town",12,51.493381,-0.007542
"Hawley Crescent, Camden Town",12,51.54100708,-0.14326094
"St. John's Road, Clapham Junction",12,51.46239255,-0.16829214
"Shepherd's Bush Road North, Shepherd's Bush",12,51.5015946,-0.222293381
"Spindrift Avenue, Millwall",12,51.49109,-0.018716
"Westfield Ariel Way, White City",11,51.509158,-0.224103
"Clarence Walk, Stockwell",11,51.47073264,-0.126994068
"Harford Street, Mile End",11,51.521564,-0.039264
"Smugglers Way, Wandsworth",11,51.46108367,-0.191722864
"Teversham Lane, Stockwell",11,51.47614939,-0.1232585
"Somerset House, Strand",11,51.509943,-0.117619
"Selby Street, Whitechapel",11,51.521905,-0.063386
"Frampton Street, Paddington",11,51.5233534,-0.175116099
"Greenberry Street, St.John's Wood",11,51.53256,-0.16862
"Heron Quays DLR, Canary Wharf",11,51.502661,-0.021596
"Wandsworth Rd, Isley Court, Wandsworth Road",10,51.46925984,-0.141812513
"Chrisp Street Market, Poplar",10,51.5112,-0.014438
"Manbre Road, Hammersmith",10,51.485743,-0.223616
"Culvert Road, Battersea",10,51.4710956,-0.157850096
"Southern Grove, Bow",10,51.523538,-0.030556
"Evesham Street, Avondale",10,51.51148696,-0.218190203
"Morie Street, Wandsworth",10,51.45995384,-0.190184054
"Wendon Street, Old Ford",10,51.53603947,-0.026262677
"Napier Avenue, Millwall",10,51.487679,-0.021582
"Argyll Road, Kensington",9,51.50040123,-0.195455928
"Antill Road, Mile End",9,51.528224,-0.037471
"Courland Grove, Wandsworth Road",9,51.4729184,-0.132102704
"Dickens Square, Borough",9,51.49679128,-0.093913472
"Calshot Street , King's Cross",9,51.53136059,-0.117069978
"Crisp Road, Hammersmith",9,51.48810829,-0.22660621
"Ranelagh Gardens, Fulham",9,51.46760141,-0.20682737
"Stanley Grove, Battersea",9,51.47047503,-0.152130083
"Mexfield Road, East Putney",9,51.45682071,-0.202802098
"Nantes Close, Wandsworth",8,51.46193072,-0.180791784
"East India DLR, Blackwall",8,51.509474,-0.002275
"Putney Bridge Road, East Putney",8,51.46199911,-0.206240805
"Westminster Bridge Road, Elephant & Castle",8,51.498386,-0.107913
"Elysium Place, Fulham",8,51.47107905,-0.207842908
"Oxford Road, Putney",8,51.46079243,-0.212607684
"Holden Street, Battersea",8,51.4687905,-0.158230901
"Putney Rail Station, Putney",8,51.46071722,-0.216526155
"Alma Road, Wandsworth",7,51.45799126,-0.184806157
"Ackroyd Drive, Bow",7,51.520398,-0.026768
"Freston Road, Avondale",7,51.5129814,-0.219486603
"Montserrat Road , Putney",7,51.46321128,-0.215550761
"Abbotsbury Road, Holland Park",7,51.501391,-0.205991
"Northfields, Wandsworth",7,51.46095151,-0.20066766
"Rifle Place, Avondale",7,51.509224,-0.216016
"Mallory Street, Marylebone",7,51.52505151,-0.166304359
"Lightermans Road, Millwall",7,51.499041,-0.020157
"Southerton Road, Hammersmith",7,51.494499,-0.228188
"Ilchester Place, Kensington",7,51.50074359,-0.202759212
"Devons Road, Bow",6,51.52512,-0.015578
"Peterborough Road, Sands End",6,51.46904022,-0.19627483
"Millharbour, Millwall",6,51.496137,-0.019355
"Upper Grosvenor Street, Mayfair",6,51.51013066,-0.155757901
"Mudchute DLR, Cubitt Town",6,51.490645,-0.014582
"Neville Gill Close, Wandsworth",6,51.45475251,-0.195197203
"Esmond Street, Putney",6,51.46231278,-0.211468596
"Canton Street, Poplar",6,51.511811,-0.025626
"Teviot Street, Poplar",6,51.518811,-0.011662
"Broomhouse Lane, Parsons Green",6,51.46841875,-0.199135704
"Spencer Park, Wandsworth Common",5,51.45787019,-0.174691623
"Plough Terrace, Clapham Junction",5,51.46230566,-0.175407201
"Cantrell Road, Bow",5,51.521564,-0.022694
"Heath Road, Battersea",5,51.46866929,-0.146544642
"Newby Place, Poplar",5,51.508896,-0.012413
"Fawcett Close, Battersea",5,51.46916161,-0.174485792
"Naval Row, Blackwall",5,51.508981,-0.00699
"Sirdar Road, Avondale",5,51.51092871,-0.214594781
"Grenfell Road, Avondale",4,51.5129006,-0.214762686
"Malmesbury Road, Bow",4,51.529452,-0.027616
"Colet Gardens, Hammersmith",4,51.491093,-0.216493
"Santos Road, Wandsworth",4,51.45705988,-0.200806304
"Geraldine Street, Elephant & Castle",4,51.49612799,-0.106000855
"Queensdale Road, Shepherd's Bush",4,51.50659035,-0.216104479
"Preston's Road, Cubitt Town",3,51.499286,-0.009152
"Langdon Park, Poplar",3,51.51549,-0.013475
"Holland Park, Kensington",3,51.502319,-0.200742
"Lancaster Drive, Blackwall",2,51.503143,-0.008428
"New North Road 1, Hoxton",2,51.53095,-0.085603
"Hurlingham Park, Parsons Green",1,51.470131,-0.20464
"Aberfeldy Street, Poplar",1,51.513548,-0.005659
